[{"name": "Cheesecake Factory", "cuisine": "American", "id": 1, "address": "Caminho da Cascatinha", "lat": -22.978391, "lon": -43.482523}, {"name": "Shokolaat", "cuisine": "American", "id": 2, "address": "Rua Ant\u00f4nio Virzi", "lat": -23.0053878, "lon": -43.4392792}, {"name": "Gordon Biersch", "cuisine": "American", "id": 3, "address": "Rua Mois\u00e9s Borges", "lat": -23.0074102, "lon": -45.5685705}, {"name": "Crepevine", "cuisine": "American", "id": 4, "address": "Rua Santa B\u00e1rbara", "lat": -5.0390213, "lon": -42.7333501}, {"name": "Creamery", "cuisine": "American", "id": 5, "address": "Rua Vinte e Quatro", "lat": -19.7917914, "lon": -44.0312814}, {"name": "Old Pro", "cuisine": "American", "id": 6, "address": "Praia de Ramos", "lat": -22.8398389, "lon": -43.25145005706902}, {"name": "Nola\"s", "cuisine": "Cajun", "id": 7, "address": "Rua Gramadinho", "lat": -22.8755835, "lon": -43.5431399}, {"name": "House of Bagels", "cuisine": "Bagels", "id": 8, "address": "Rua Jo\u00e3o Adil de Oliveira", "lat": -22.824447, "lon": -43.3277847}, {"name": "The Prolific Oven", "cuisine": "Sandwiches", "id": 9, "address": "Avenida Rodrigo Otavio", "lat": -22.978389, "lon": -43.2265729}, {"name": "La Strada", "cuisine": "Italian", "id": 10, "address": "Rua Isolino Aquino", "lat": -22.8531752, "lon": -43.3952511}, {"name": "Buca di Beppo", "cuisine": "Italian", "id": 11, "address": "Rua Santo Sepulcro", "lat": -22.8775529, "lon": -43.3295745}, {"name": "Pasta?", "cuisine": "Italian", "id": 12, "address": "Rua S\u00e3o Louren\u00e7o", "lat": -22.88326, "lon": -43.109002}, {"name": "Madame Tam", "cuisine": "Asian", "id": 13, "address": "Rua Umarizal", "lat": -3.1175537, "lon": -60.0483946}, {"name": "Sprout Cafe", "cuisine": "Salad", "id": 14, "address": "Rua C\u00edcero Gois Monteiro", "lat": -22.9635187, "lon": -43.2037874}, {"name": "Pluto\"s", "cuisine": "Salad", "id": 15, "address": "Rua Guaxima", "lat": -22.9000487, "lon": -43.5716176}, {"name": "Junoon", "cuisine": "Indian", "id": 16, "address": "Rua Marechal Jardim", "lat": -22.8946752, "lon": -43.2329}, {"name": "Bistro Maxine", "cuisine": "French", "id": 17, "address": "Rua Dilson Heleno Silva", "lat": -22.9186081, "lon": -43.3884367}, {"name": "Three Seasons", "cuisine": "Vietnamese", "id": 18, "address": "Avenida Ayrton Senna", "lat": -5.8706659, "lon": -35.203568}, {"name": "Sancho\"s Taquira", "cuisine": "Mexican", "id": 19, "address": "Rua Palmiro Alves", "lat": -22.8894352, "lon": -43.4717296}, {"name": "Reposado", "cuisine": "Mexican", "id": 20, "address": "Rua Projetada do Canal", "lat": -22.9402345, "lon": -43.3916596}, {"name": "Siam Royal", "cuisine": "Thai", "id": 21, "address": "Rua Bernardo Jos\u00e9 de Oliveira", "lat": -19.8852172, "lon": -44.026052}, {"name": "Krung Siam", "cuisine": "Thai", "id": 22, "address": "Travessa Uni\u00e3o", "lat": -22.875482, "lon": -43.5023537}, {"name": "Thaiphoon", "cuisine": "Thai", "id": 23, "address": "Rua Bel\u00e9m", "lat": -1.440922, "lon": -48.4934777}, {"name": "Tamarine", "cuisine": "Vietnamese", "id": 24, "address": "Travessa B", "lat": -3.7848625, "lon": -38.6096655}, {"name": "Joya", "cuisine": "Tapas", "id": 25, "address": "Rua Jaci", "lat": -19.4722664, "lon": -42.5551218}, {"name": "Jing Jing", "cuisine": "Chinese", "id": 26, "address": "Rua Monsenhor Manuel Gomes", "lat": -23.4799129, "lon": -46.7101322}, {"name": "Patxi\"s Pizza", "cuisine": "Pizza", "id": 27, "address": "Rua Sargento Morais Pinheiro", "lat": -22.8598418, "lon": -43.3985515}, {"name": "Evvia Estiatorio", "cuisine": "Mediterranean", "id": 28, "address": "Avenida Visconde de Albuquerque", "lat": -22.9788803, "lon": -43.2265997}, {"name": "Cafe 220", "cuisine": "Mediterranean", "id": 29, "address": "Rua M\u00e1rio Ferreira", "lat": -22.8706983, "lon": -43.2950138}, {"name": "Cafe Renaissance", "cuisine": "Mediterranean", "id": 30, "address": "Rua Teodoro da Silva", "lat": -22.9175916, "lon": -43.2455871}, {"name": "Kan Zeman", "cuisine": "Mediterranean", "id": 31, "address": "Rua Mantena", "lat": -8.1176679, "lon": -34.9455994}, {"name": "Gyros-Gyros", "cuisine": "Mediterranean", "id": 32, "address": "Rua Tom\u00e9 Pereira", "lat": -28.6689955, "lon": -49.3724526}, {"name": "Mango Caribbean Cafe", "cuisine": "Caribbean", "id": 33, "address": "Rua G-W", "lat": -10.986697, "lon": -37.0572804}, {"name": "Coconuts Caribbean Restaurant & Bar", "cuisine": "Caribbean", "id": 34, "address": "Rua An\u00edbal Machado", "lat": -19.834962, "lon": -43.9295222}, {"name": "Rose & Crown", "cuisine": "English", "id": 35, "address": "Avenida Passos", "lat": -22.9027698, "lon": -43.1839527}, {"name": "Baklava", "cuisine": "Mediterranean", "id": 36, "address": "Rua Fernandes Portugal", "lat": -22.8704789, "lon": -43.2920216}, {"name": "Mandarin Gourmet", "cuisine": "Chinese", "id": 37, "address": "Rua Natal", "lat": -5.8806751, "lon": -35.1965491}, {"name": "Bangkok Cuisine", "cuisine": "Thai", "id": 38, "address": "Rua S\u00e3o Pl\u00e1cido", "lat": -22.9162088, "lon": -43.6409281}, {"name": "Darbar Indian Cuisine", "cuisine": "Indian", "id": 39, "address": "Rua Padre M\u00e1rio Verse", "lat": -22.8242444, "lon": -43.397934}, {"name": "Mantra", "cuisine": "Indian", "id": 40, "address": "Rua Doutor Francisco Fonseca Teles", "lat": -22.9250798, "lon": -43.3738599}, {"name": "Janta", "cuisine": "Indian", "id": 41, "address": "Rua Seis de Janeiro", "lat": -7.9896412, "lon": -34.896993}, {"name": "Hyderabad House", "cuisine": "Indian", "id": 42, "address": "Rua Hermes da Silva", "lat": -22.9213692, "lon": -43.6954097}, {"name": "Starbucks", "cuisine": "Coffee", "id": 43, "address": "Rua dos Motociclistas", "lat": -22.9150691, "lon": -43.5785516}, {"name": "Peet\"s Coffee", "cuisine": "Coffee", "id": 44, "address": "Rua Cl\u00f3vis Paulo da Rocha", "lat": -22.8900456, "lon": -43.5258083}, {"name": "Coupa Cafe", "cuisine": "Coffee", "id": 45, "address": "Rua Doutor Miguel Vieira Ferreira", "lat": -8.0513142, "lon": -34.9356752}, {"name": "Lytton Coffee Company", "cuisine": "Coffee", "id": 46, "address": "Rua Professora Isolina Sartore", "lat": -23.0204817, "lon": -43.4661376}, {"name": "Il Fornaio", "cuisine": "Italian", "id": 47, "address": "Rua Joathur Bueno", "lat": -23.0030348, "lon": -43.3358812}, {"name": "Lavanda", "cuisine": "Mediterranean", "id": 48, "address": "Rua Maria Jos\u00e9", "lat": -23.7010032, "lon": -46.5027412}, {"name": "MacArthur Park", "cuisine": "American", "id": 49, "address": "Rua Soldado Eug\u00eanio da Silva", "lat": -22.9277894, "lon": -43.3838651}, {"name": "St Michael\"s Alley", "cuisine": "Californian", "id": 50, "address": "Avenida General Felic\u00edssimo Cardoso", "lat": -23.0051764, "lon": -43.3516136}, {"name": "Osteria", "cuisine": "Italian", "id": 51, "address": "Rua Cinco", "lat": -19.7979197, "lon": -44.0257069}, {"name": "Vero", "cuisine": "Italian", "id": 52, "address": "Avenida Jo\u00e3o Carlos Machado", "lat": -23.0110435, "lon": -43.3047575}, {"name": "Cafe Renzo", "cuisine": "Italian", "id": 53, "address": "Rua Idalisio Aranha Filho", "lat": -22.9131598, "lon": -43.6537671}, {"name": "Miyake", "cuisine": "Sushi", "id": 54, "address": "Rua Humberto Teixeira", "lat": -22.89532225, "lon": -43.45516604702844}, {"name": "Sushi Tomo", "cuisine": "Sushi", "id": 55, "address": "Rua Um-Marco Sete", "lat": -19.4719287, "lon": -44.2530883}, {"name": "Kanpai", "cuisine": "Sushi", "id": 56, "address": "Rua Ant\u00f4nio Pinto da Mota", "lat": -22.9234641, "lon": -43.2181037}, {"name": "Pizza My Heart", "cuisine": "Pizza", "id": 57, "address": "Rua M\u00e1rio H. Pinheiro", "lat": -9.636037, "lon": -35.744816}, {"name": "New York Pizza", "cuisine": "Pizza", "id": 58, "address": "Alameda dos Angelins da Pen\u00ednsula", "lat": -22.9907083, "lon": -43.3512645}, {"name": "California Pizza Kitchen", "cuisine": "Pizza", "id": 59, "address": "Rua S\u00e3o Jos\u00e9", "lat": -8.1518215, "lon": -36.3699726}, {"name": "Round Table", "cuisine": "Pizza", "id": 60, "address": "Rua Sargento Clerio Bortolo", "lat": -23.4523621, "lon": -46.5361816}, {"name": "Loving Hut", "cuisine": "Vegan", "id": 61, "address": "Rua Guilherme Monteiro", "lat": -22.9299699, "lon": -43.6325267}, {"name": "Garden Fresh", "cuisine": "Vegan", "id": 62, "address": "Rua General Danton Teixeira", "lat": -22.9952582, "lon": -43.2721652}, {"name": "Cafe Epi", "cuisine": "French", "id": 63, "address": "Rua Benedito Lacerda", "lat": -22.8896694, "lon": -43.5822695}, {"name": "Tai Pan", "cuisine": "Chinese", "id": 64, "address": "Rua Dagmar da Fonseca", "lat": -22.8740346, "lon": -43.3390707}]